$GNRMC,060524.00,A,5045.12728,N,03021.76450,E,0.025,,070516,,,A*63
$GNVTG,,T,,M,0.025,N,0.046,K,A*38
$GNGGA,060524.00,5045.12728,N,03021.76450,E,1,08,1.13,109.0,M,25.6,M,,*4F
$GNGSA,A,3,09,05,07,30,16,23,,,,,,,1.86,1.13,1.48*13
$GNGSA,A,3,69,70,,,,,,,,,,,1.86,1.13,1.48*15
$GPGSV,3,1,12,02,16,266,,05,31,308,31,06,03,224,17,07,84,203,27*79
$GPGSV,3,2,12,08,01,100,,09,57,103,34,13,01,283,,16,20,039,14*7D
$GPGSV,3,3,12,23,26,105,27,27,07,072,24,28,02,182,29,30,53,228,30*79
$GLGSV,3,1,09,69,15,143,28,70,72,153,33,71,51,317,21,72,02,320,*6E
$GLGSV,3,2,09,73,40,212,23,79,20,038,,80,78,057,,87,08,324,*6D
$GLGSV,3,3,09,88,11,010,*5D
$GNGLL,5045.12728,N,03021.76450,E,060524.00,A,A*78
$GNRMC,060524.20,A,5045.12725,N,03021.76446,E,0.076,,070516,,,A*6D
$GNVTG,,T,,M,0.076,N,0.140,K,A*39
$GNGGA,060524.20,5045.12725,N,03021.76446,E,1,08,1.13,108.9,M,25.6,M,,*4F
$GNGSA,A,3,09,05,07,30,16,23,,,,,,,1.86,1.13,1.48*13
$GNGSA,A,3,69,70,,,,,,,,,,,1.86,1.13,1.48*15
$GPGSV,3,1,12,02,16,266,,05,31,308,31,06,03,224,17,07,84,203,27*79
$GPGSV,3,2,12,08,01,100,,09,57,103,34,13,01,283,,16,20,039,14*7D
$GPGSV,3,3,12,23,26,105,27,27,07,072,24,28,02,182,29,30,53,228,30*79
$GLGSV,3,1,09,69,15,143,29,70,72,153,33,71,51,317,21,72,02,320,*6F
$GLGSV,3,2,09,73,40,212,23,79,20,038,,80,78,057,,87,08,324,*6D
$GLGSV,3,3,09,88,11,010,*5D
$GNGLL,5045.12725,N,03021.76446,E,060524.20,A,A*70
$GNRMC,060524.40,A,5045.12723,N,03021.76443,E,0.045,,070516,,,A*68
$GNVTG,,T,,M,0.045,N,0.083,K,A*37
$GNGGA,060524.40,5045.12723,N,03021.76443,E,1,08,1.13,108.9,M,25.6,M,,*4A
$GNGSA,A,3,09,05,07,30,16,23,,,,,,,1.86,1.13,1.48*13
$GNGSA,A,3,69,70,,,,,,,,,,,1.86,1.13,1.48*15
$GPGSV,3,1,12,02,16,266,,05,31,308,31,06,03,224,16,07,84,203,27*78
$GPGSV,3,2,12,08,01,100,,09,57,103,34,13,01,283,,16,20,039,14*7D
$GPGSV,3,3,12,23,26,105,27,27,07,072,24,28,02,182,29,30,53,228,30*79
$GLGSV,3,1,09,69,15,143,28,70,72,153,33,71,51,317,20,72,02,320,*6F
$GLGSV,3,2,09,73,40,212,22,79,20,038,,80,78,057,,87,08,324,*6C
$GLGSV,3,3,09,88,11,010,*5D
$GNGLL,5045.12723,N,03021.76443,E,060524.40,A,A*75
$GNRMC,060524.60,A,5045.12722,N,03021.76440,E,0.031,,070516,,,A*6B
$GNVTG,,T,,M,0.031,N,0.057,K,A*3D
$GNGGA,060524.60,5045.12722,N,03021.76440,E,1,08,1.13,108.9,M,25.6,M,,*4A
$GNGSA,A,3,09,05,07,30,16,23,,,,,,,1.86,1.13,1.48*13
$GNGSA,A,3,69,70,,,,,,,,,,,1.86,1.13,1.48*15
$GPGSV,3,1,12,02,16,266,,05,31,308,31,06,03,224,16,07,84,203,27*78
$GPGSV,3,2,12,08,01,100,,09,57,103,34,13,01,283,,16,20,039,14*7D
$GPGSV,3,3,12,23,26,105,27,27,07,072,24,28,02,182,29,30,53,228,30*79
$GLGSV,3,1,09,69,15,143,28,70,72,153,33,71,51,317,20,72,02,320,*6F
$GLGSV,3,2,09,73,40,212,22,79,20,038,,80,78,057,,87,08,324,*6C
$GLGSV,3,3,09,88,11,010,*5D
$GNGLL,5045.12722,N,03021.76440,E,060524.60,A,A*75
$GNRMC,060524.80,A,5045.12719,N,03021.76437,E,0.018,,070516,,,A*66
$GNVTG,,T,,M,0.018,N,0.034,K,A*33
$GNGGA,060524.80,5045.12719,N,03021.76437,E,1,08,1.13,108.9,M,25.6,M,,*4C
$GNGSA,A,3,09,05,07,30,16,23,,,,,,,1.86,1.13,1.48*13
$GNGSA,A,3,69,70,,,,,,,,,,,1.86,1.13,1.48*15
$GPGSV,3,1,12,02,16,266,,05,31,308,31,06,03,224,16,07,84,203,27*78
$GPGSV,3,2,12,08,01,100,,09,57,103,34,13,01,283,,16,20,039,14*7D
$GPGSV,3,3,12,23,26,105,27,27,07,072,24,28,02,182,29,30,53,228,30*79
$GLGSV,3,1,09,69,15,143,28,70,72,153,29,71,51,317,20,72,02,320,*64
$GLGSV,3,2,09,73,40,212,22,79,20,038,,80,78,057,,87,08,324,*6C
$GLGSV,3,3,09,88,11,010,*5D
$GNGLL,5045.12719,N,03021.76437,E,060524.80,A,A*73
$GNRMC,060525.00,A,5045.12717,N,03021.76433,E,0.018,,070516,,,A*65
$GNVTG,,T,,M,0.018,N,0.033,K,A*34
$GNGGA,060525.00,5045.12717,N,03021.76433,E,1,08,1.13,108.8,M,25.6,M,,*4E
$GNGSA,A,3,09,05,07,30,16,23,,,,,,,1.86,1.13,1.48*13
$GNGSA,A,3,69,70,,,,,,,,,,,1.86,1.13,1.48*15
$GPGSV,3,1,12,02,16,266,,05,31,308,31,06,03,224,16,07,84,203,27*78
$GPGSV,3,2,12,08,01,100,,09,57,103,34,13,01,283,,16,20,039,14*7D
$GPGSV,3,3,12,23,26,105,27,27,07,072,24,28,02,182,29,30,53,228,30*79
$GLGSV,3,1,09,69,15,143,28,70,72,153,32,71,51,317,20,72,02,320,*6E
$GLGSV,3,2,09,73,40,212,21,79,20,038,,80,78,057,,87,08,324,*6F
$GLGSV,3,3,09,88,11,010,*5D
$GNGLL,5045.12717,N,03021.76433,E,060525.00,A,A*70
$GNRMC,060525.20,A,5045.12716,N,03021.76430,E,0.053,,070516,,,A*6A
$GNVTG,,T,,M,0.053,N,0.098,K,A*3A
$GNGGA,060525.20,5045.12716,N,03021.76430,E,1,08,1.13,108.8,M,25.6,M,,*4E
$GNGSA,A,3,09,05,07,30,16,23,,,,,,,1.86,1.13,1.48*13
$GNGSA,A,3,69,70,,,,,,,,,,,1.86,1.13,1.48*15
$GPGSV,3,1,12,02,16,266,,05,31,308,31,06,03,224,16,07,84,203,27*78
$GPGSV,3,2,12,08,01,100,,09,57,103,34,13,01,283,,16,20,039,14*7D
$GPGSV,3,3,12,23,26,105,27,27,07,072,24,28,02,182,29,30,53,228,30*79
$GLGSV,3,1,09,69,15,143,28,70,72,153,32,71,51,317,20,72,02,320,*6E
$GLGSV,3,2,09,73,40,212,21,79,20,038,,80,78,056,,87,08,324,*6E
$GLGSV,3,3,09,88,11,010,*5D
$GNGLL,5045.12716,N,03021.76430,E,060525.20,A,A*70
$GNRMC,060525.40,A,5045.12714,N,03021.76428,E,0.003,,070516,,,A*62
$GNVTG,,T,,M,0.003,N,0.006,K,A*38
$GNGGA,060525.40,5045.12714,N,03021.76428,E,1,08,1.13,108.7,M,25.6,M,,*4C
$GNGSA,A,3,09,05,07,30,16,23,,,,,,,1.86,1.13,1.48*13
$GNGSA,A,3,69,70,,,,,,,,,,,1.86,1.13,1.48*15
$GPGSV,3,1,12,02,16,266,,05,31,308,31,06,03,224,16,07,84,203,27*78
$GPGSV,3,2,12,08,01,100,,09,57,103,34,13,01,283,,16,20,039,14*7D
$GPGSV,3,3,12,23,26,105,27,27,07,072,24,28,02,182,29,30,53,228,30*79
$GLGSV,3,1,09,69,15,143,28,70,72,153,32,71,51,317,19,72,02,320,*64
$GLGSV,3,2,09,73,40,212,21,79,20,038,,80,78,056,,87,08,324,*6E
$GLGSV,3,3,09,88,11,010,*5D
$GNGLL,5045.12714,N,03021.76428,E,060525.40,A,A*7D
$GNRMC,060525.60,A,5045.12712,N,03021.76425,E,0.056,,070516,,,A*6B
$GNVTG,,T,,M,0.056,N,0.103,K,A*3C
$GNGGA,060525.60,5045.12712,N,03021.76425,E,1,08,1.13,108.6,M,25.6,M,,*44
$GNGSA,A,3,09,05,07,30,16,23,,,,,,,1.86,1.13,1.48*13
$GNGSA,A,3,69,70,,,,,,,,,,,1.86,1.13,1.48*15
$GPGSV,3,1,12,02,16,266,,05,31,308,31,06,03,224,16,07,84,203,27*78
$GPGSV,3,2,12,08,01,100,,09,57,103,34,13,01,283,,16,20,039,11*78
$GPGSV,3,3,12,23,26,105,27,27,07,072,24,28,02,182,29,30,53,228,30*79
$GLGSV,3,1,09,69,15,143,27,70,72,153,32,71,51,317,19,72,02,320,*6B
$GLGSV,3,2,09,73,40,212,21,79,20,038,,80,78,056,,87,08,324,*6E
$GLGSV,3,3,09,88,11,010,*5D
$GNGLL,5045.12712,N,03021.76425,E,060525.60,A,A*74
$GNRMC,060525.80,A,5045.12710,N,03021.76422,E,0.034,,070516,,,A*64
$GNVTG,,T,,M,0.034,N,0.063,K,A*3F
$GNGGA,060525.80,5045.12710,N,03021.76422,E,1,08,1.13,108.6,M,25.6,M,,*4F
$GNGSA,A,3,09,05,07,30,16,23,,,,,,,1.86,1.13,1.48*13
$GNGSA,A,3,69,70,,,,,,,,,,,1.86,1.13,1.48*15
$GPGSV,3,1,12,02,16,266,,05,31,308,31,06,03,224,16,07,84,203,27*78
$GPGSV,3,2,12,08,01,100,,09,57,103,34,13,01,283,,16,20,039,11*78
$GPGSV,3,3,12,23,26,105,28,27,07,072,24,28,02,182,29,30,53,228,30*76
$GLGSV,3,1,09,69,15,143,27,70,72,153,31,71,51,317,19,72,02,320,*68
$GLGSV,3,2,09,73,40,212,21,79,20,038,,80,78,056,,87,08,324,*6E
$GLGSV,3,3,09,88,11,010,*5D
$GNGLL,5045.12710,N,03021.76422,E,060525.80,A,A*7F
$GNRMC,060526.00,A,5045.12709,N,03021.76419,E,0.016,,070516,,,A*6F
$GNVTG,,T,,M,0.016,N,0.030,K,A*39
$GNGGA,060526.00,5045.12709,N,03021.76419,E,1,08,1.13,108.6,M,25.6,M,,*44
$GNGSA,A,3,09,05,07,30,16,23,,,,,,,1.86,1.13,1.48*13
$GNGSA,A,3,69,70,,,,,,,,,,,1.86,1.13,1.48*15
$GPGSV,3,1,12,02,16,266,,05,31,308,31,06,03,224,17,07,84,203,27*79
$GPGSV,3,2,12,08,01,100,,09,57,103,34,13,01,283,,16,20,039,17*7E
$GPGSV,3,3,12,23,26,105,27,27,07,072,24,28,02,182,29,30,53,228,30*79
$GLGSV,3,1,09,69,15,143,27,70,72,153,31,71,51,317,19,72,02,320,*68
$GLGSV,3,2,09,73,40,212,20,79,20,038,,80,78,056,,87,08,324,*6F
$GLGSV,3,3,09,88,11,010,*5D
$GNGLL,5045.12709,N,03021.76419,E,060526.00,A,A*74
$GNRMC,060526.20,A,5045.12707,N,03021.76416,E,0.092,,070516,,,A*60
$GNVTG,,T,,M,0.092,N,0.170,K,A*30
$GNGGA,060526.20,5045.12707,N,03021.76416,E,1,09,1.13,108.5,M,25.6,M,,*45
$GNGSA,A,3,09,05,07,30,16,23,,,,,,,1.86,1.13,1.48*13
$GNGSA,A,3,69,73,70,,,,,,,,,,1.86,1.13,1.48*11
$GPGSV,3,1,12,02,16,266,,05,31,308,31,06,03,224,17,07,84,203,27*79
$GPGSV,3,2,12,08,01,100,,09,57,103,34,13,01,283,,16,20,039,17*7E
$GPGSV,3,3,12,23,26,105,28,27,07,072,24,28,02,182,29,30,53,228,30*76
$GLGSV,3,1,09,69,15,143,27,70,72,153,31,71,51,317,18,72,02,320,*69
$GLGSV,3,2,09,73,40,212,20,79,20,038,,80,78,056,,87,08,324,*6F
$GLGSV,3,3,09,88,11,010,*5D
$GNGLL,5045.12707,N,03021.76416,E,060526.20,A,A*77
$GNRMC,060526.40,A,5045.12705,N,03021.76413,E,0.076,,070516,,,A*6B
$GNVTG,,T,,M,0.076,N,0.140,K,A*39
$GNGGA,060526.40,5045.12705,N,03021.76413,E,1,09,1.13,108.5,M,25.6,M,,*44
$GNGSA,A,3,09,05,07,30,16,23,,,,,,,1.86,1.13,1.48*13
$GNGSA,A,3,69,73,70,,,,,,,,,,1.86,1.13,1.48*11
$GPGSV,3,1,12,02,16,266,,05,31,308,31,06,03,224,17,07,84,203,27*79
$GPGSV,3,2,12,08,01,100,,09,57,103,34,13,01,283,,16,20,039,11*78
$GPGSV,3,3,12,23,26,105,28,27,07,072,24,28,02,182,29,30,53,228,29*7E
$GLGSV,3,1,09,69,15,143,27,70,72,153,31,71,51,317,18,72,02,320,*69
$GLGSV,3,2,09,73,40,212,20,79,20,038,,80,78,056,,87,08,324,*6F
$GLGSV,3,3,09,88,11,010,*5D
$GNGLL,5045.12705,N,03021.76413,E,060526.40,A,A*76
$GNRMC,060526.60,A,5045.12703,N,03021.76410,E,0.049,,070516,,,A*60
$GNVTG,,T,,M,0.049,N,0.091,K,A*38
$GNGGA,060526.60,5045.12703,N,03021.76410,E,1,09,1.13,108.4,M,25.6,M,,*42
$GNGSA,A,3,09,05,07,30,16,23,,,,,,,1.86,1.13,1.48*13
$GNGSA,A,3,69,73,70,,,,,,,,,,1.86,1.13,1.48*11
$GPGSV,3,1,12,02,16,266,,05,31,308,31,06,03,224,17,07,84,203,27*79
$GPGSV,3,2,12,08,01,100,,09,57,103,34,13,01,283,,16,20,039,11*78
$GPGSV,3,3,12,23,26,105,28,27,07,072,24,28,02,182,29,30,53,228,29*7E
$GLGSV,3,1,09,69,15,143,27,70,72,153,31,71,51,317,18,72,02,320,*69
$GLGSV,3,2,09,73,40,212,20,79,20,038,,80,78,056,,87,08,324,*6F
$GLGSV,3,3,09,88,11,010,*5D
$GNGLL,5045.12703,N,03021.76410,E,060526.60,A,A*71
$GNRMC,060526.80,A,5045.12701,N,03021.76407,E,0.005,,070516,,,A*62
$GNVTG,,T,,M,0.005,N,0.009,K,A*31
$GNGGA,060526.80,5045.12701,N,03021.76407,E,1,09,1.13,108.4,M,25.6,M,,*48
$GNGSA,A,3,09,05,07,30,16,23,,,,,,,1.86,1.13,1.48*13
$GNGSA,A,3,69,73,70,,,,,,,,,,1.86,1.13,1.48*11
$GPGSV,3,1,12,02,16,266,,05,31,308,31,06,03,224,17,07,84,203,27*79
$GPGSV,3,2,12,08,01,100,,09,57,103,34,13,01,283,,16,20,039,11*78
$GPGSV,3,3,12,23,26,105,28,27,07,072,24,28,02,182,29,30,53,228,30*76
$GLGSV,3,1,09,69,15,143,27,70,72,153,31,71,51,317,17,72,02,320,*66
$GLGSV,3,2,09,73,40,212,20,79,20,038,,80,78,056,,87,08,324,*6F
$GLGSV,3,3,09,88,11,010,*5D
$GNGLL,5045.12701,N,03021.76407,E,060526.80,A,A*7B
$GNRMC,060527.00,A,5045.12699,N,03021.76404,E,0.034,,070516,,,A*6A
$GNVTG,,T,,M,0.034,N,0.063,K,A*3F
$GNGGA,060527.00,5045.12699,N,03021.76404,E,1,09,1.13,108.4,M,25.6,M,,*42
$GNGSA,A,3,09,05,07,30,16,23,,,,,,,1.86,1.13,1.48*13
$GNGSA,A,3,69,73,70,,,,,,,,,,1.86,1.13,1.48*11
$GPGSV,3,1,12,02,16,266,,05,31,308,31,06,03,224,17,07,84,203,27*79
$GPGSV,3,2,12,08,01,100,,09,57,103,34,13,01,283,,16,20,039,11*78
$GPGSV,3,3,12,23,26,105,28,27,07,072,24,28,02,182,29,30,53,228,30*76
$GLGSV,3,1,09,69,15,143,27,70,72,153,31,71,51,317,18,72,02,320,*69
$GLGSV,3,2,09,73,40,212,20,79,20,038,,80,78,056,,87,08,324,*6F
$GLGSV,3,3,09,88,11,010,*5D
$GNGLL,5045.12699,N,03021.76404,E,060527.00,A,A*71
$GNRMC,060527.20,A,5045.12696,N,03021.76399,E,0.190,,070516,,,A*6B
$GNVTG,,T,,M,0.190,N,0.352,K,A*31
$GNGGA,060527.20,5045.12696,N,03021.76399,E,1,09,1.13,108.3,M,25.6,M,,*4B
$GNGSA,A,3,09,05,07,30,16,23,,,,,,,1.86,1.13,1.48*13
$GNGSA,A,3,69,73,70,,,,,,,,,,1.86,1.13,1.48*11
$GPGSV,3,1,12,02,16,266,,05,31,308,31,06,03,224,18,07,84,203,27*76
$GPGSV,3,2,12,08,01,100,,09,57,103,34,13,01,283,,16,20,039,11*78
$GPGSV,3,3,12,23,26,105,28,27,07,072,24,28,02,182,29,30,53,228,30*76
$GLGSV,3,1,09,69,15,143,27,70,72,153,31,71,51,317,18,72,02,320,*69
$GLGSV,3,2,09,73,40,212,19,79,20,038,,80,78,056,,87,08,324,*65
$GLGSV,3,3,09,88,11,010,*5D
$GNGLL,5045.12696,N,03021.76399,E,060527.20,A,A*7F
$GNRMC,060527.40,A,5045.12695,N,03021.76398,E,0.098,,070516,,,A*66
$GNVTG,,T,,M,0.098,N,0.182,K,A*37
$GNGGA,060527.40,5045.12695,N,03021.76398,E,1,09,1.13,108.3,M,25.6,M,,*4F
$GNGSA,A,3,09,05,07,30,16,23,,,,,,,1.86,1.13,1.48*13
$GNGSA,A,3,69,73,70,,,,,,,,,,1.86,1.13,1.48*11
$GPGSV,3,1,12,02,16,266,,05,31,308,31,06,03,224,18,07,84,203,27*76
$GPGSV,3,2,12,08,01,100,,09,57,103,34,13,01,283,,16,20,039,11*78
$GPGSV,3,3,12,23,26,105,28,27,07,072,24,28,02,182,29,30,53,228,29*7E
$GLGSV,3,1,09,69,15,143,27,70,72,153,32,71,51,317,18,72,02,320,*6A
$GLGSV,3,2,09,73,40,212,20,79,20,038,,80,78,056,,87,08,324,*6F
